41238217 00000000 GPGGA,032706.40,3807.38221527,N,11430.58922326,E,2,07,1.3,77.822,M,-14.614,M,9.6,0100*5F
$GPZDA,032706.409,26,06,2015,00,00*5F
41238317 00000000 GPGGA,032706.50,3807.38221545,N,11430.58922308,E,2,07,1.3,77.817,M,-14.614,M,9.7,0100*51
$GPZDA,032706.510,26,06,2015,00,00*56
41238417 00000000 GPGGA,032706.60,3807.38221609,N,11430.58922356,E,2,07,1.3,77.821,M,-14.614,M,9.8,0100*58
$GPZDA,032706.610,26,06,2015,00,00*55
41238517 00000000 GPGGA,032706.70,3807.38221621,N,11430.58922321,E,2,07,1.3,77.817,M,-14.614,M,9.9,0100*57
$GPZDA,032706.711,26,06,2015,00,00*55
41238617 00000000 GPGGA,032706.80,3807.38221615,N,11430.58922314,E,2,07,1.3,77.819,M,-14.614,M,10.0,0100*66
$GPZDA,032706.812,26,06,2015,00,00*5
41238717 00000000 GPGGA,032706.90,3807.38221744,N,11430.58922321,E,2,07,1.3,77.818,M,-14.614,M,10.1,0100*64
$GPZDA,032706.909,26,06,2015,00,00*5
41238817 00000014 GPGGA,032707.00,3807.38221509,N,11430.58922356,E,2,07,1.3,77.827,M,-14.614,M,10.2,0100*68
$GPZDA,032707.015,26,06,2015,00,00*5
41238917 00000000 GPGGA,032707.10,3807.38221652,N,11430.58922372,E,2,07,1.3,77.826,M,-14.614,M,10.3,0100*62
$GPZDA,032707.111,26,06,2015,00,00*5
41239017 00000000 GPGGA,032707.20,3807.38221765,N,11430.58922549,E,2,07,1.3,77.828,M,-14.614,M,10.4,0100*63
$GPZDA,032707.210,26,06,2015,00,00*5
41239117 00000000 GPGGA,032707.30,3807.38221472,N,11430.58922323,E,2,07,1.3,77.820,M,-14.614,M,10.5,0100*64
$GPZDA,032707.311,26,06,2015,00,00*5
41239217 00000000 GPGGA,032707.40,3807.38221599,N,11430.58922499,E,2,07,1.3,77.826,M,-14.614,M,10.6,0100*64
$GPZDA,032707.409,26,06,2015,00,00*5
41239317 00000000 GPGGA,032707.50,3807.38221568,N,11430.58922407,E,2,07,1.3,77.828,M,-14.614,M,10.7,0100*63
$GPZDA,032707.508,26,06,2015,00,00*5
41239417 00000000 GPGGA,032707.60,3807.38221631,N,11430.58922400,E,2,07,1.3,77.827,M,-14.614,M,10.8,0100*68
$GPZDA,032707.610,26,06,2015,00,00*5
41239517 00000000 GPGGA,032707.70,3807.38221798,N,11430.58922517,E,2,07,1.3,77.823,M,-14.614,M,10.9,0100*69
$GPZDA,032707.709,26,06,2015,00,00*5
41239617 00000000 GPGGA,032707.80,3807.38221585,N,11430.58922370,E,2,07,1.3,77.821,M,-14.614,M,11.0,0100*65
$GPZDA,032707.809,26,06,2015,00,00*5
41239717 00000000 GPGGA,032707.90,3807.38221707,N,11430.58922360,E,2,07,1.3,77.816,M,-14.614,M,11.1,0100*68
$GPZDA,032707.910,26,06,2015,00,00*5
41239817 00000014 GPGGA,032708.00,3807.38221676,N,11430.58922267,E,2,07,1.3,77.826,M,-14.614,M,11.2,0100*6F
$GPZDA,032708.017,26,06,2015,00,00*5
41239917 00000000 GPGGA,032708.10,3807.38221719,N,11430.58922262,E,2,07,1.3,77.817,M,-14.614,M,11.3,0100*60
$GPZDA,032708.109,26,06,2015,00,00*5
41240017 00000000 GPGGA,032708.20,3807.38221646,N,11430.58922241,E,2,07,1.3,77.816,M,-14.614,M,11.4,0100*6F
$GPZDA,032708.210,26,06,2015,00,00*5
41240117 00000000 GPGGA,032708.30,3807.38221907,N,11430.58922340,E,2,07,1.3,77.824,M,-14.614,M,11.5,0100*64
$GPZDA,032708.310,26,06,2015,00,00*5
41240217 00000000 GPGGA,032708.40,3807.38221719,N,11430.58922328,E,2,07,1.3,77.819,M,-14.614,M,11.6,0100*61
$GPZDA,032708.408,26,06,2015,00,00*5
41240317 00000000 GPGGA,032708.50,3807.38221978,N,11430.58922127,E,2,07,1.3,77.819,M,-14.614,M,11.7,0100*65
$GPZDA,032708.509,26,06,2015,00,00*5
41240417 00000000 GPGGA,032708.60,3807.38221822,N,11430.58922387,E,2,07,1.3,77.824,M,-14.614,M,11.8,0100*61
$GPZDA,032708.611,26,06,2015,00,00*5
41240517 00000000 GPGGA,032708.70,3807.38221827,N,11430.58922233,E,2,07,1.3,77.814,M,-14.614,M,11.9,0100*69
$GPZDA,032708.710,26,06,2015,00,00*5
41240617 00000000 GPGGA,032708.80,3807.38222074,N,11430.58922321,E,2,07,1.3,77.815,M,-14.614,M,12.0,0100*62
$GPZDA,032708.810,26,06,2015,00,00*5
41240717 00000000 GPGGA,032708.90,3807.38221933,N,11430.58922262,E,2,07,1.3,77.821,M,-14.614,M,12.1,0100*6A
$GPZDA,032708.909,26,06,2015,00,00*5
41240817 00000014 GPGGA,032709.00,3807.38222006,N,11430.58922128,E,2,07,1.3,77.814,M,-14.614,M,12.2,0100*66
$GPZDA,032709.016,26,06,2015,00,00*5
41240917 00000000 GPGGA,032709.10,3807.38221954,N,11430.58922336,E,2,07,1.3,77.817,M,-14.614,M,12.3,0100*65
$GPZDA,032709.110,26,06,2015,00,00*5
41241017 00000000 GPGGA,032709.20,3807.38221969,N,11430.58922031,E,2,07,1.3,77.814,M,-14.614,M,12.4,0100*68
$GPZDA,032709.209,26,06,2015,00,00*5
41241117 00000000 GPGGA,032709.30,3807.38221982,N,11430.58922144,E,2,07,1.3,77.813,M,-14.614,M,12.5,0100*69
$GPZDA,032709.310,26,06,2015,00,00*5
41241217 00000000 GPGGA,032709.40,3807.38221947,N,11430.58922219,E,2,07,1.3,77.809,M,-14.614,M,12.6,0100*64
$GPZDA,032709.410,26,06,2015,00,00*5
41241317 00000000 GPGGA,032709.50,3807.38222002,N,11430.58922218,E,2,07,1.3,77.813,M,-14.614,M,12.7,0100*65
$GPZDA,032709.510,26,06,2015,00,00*5
41241417 00000000 GPGGA,032709.60,3807.38222237,N,11430.58922095,E,2,07,1.3,77.811,M,-14.614,M,12.8,0100*68
$GPZDA,032709.609,26,06,2015,00,00*5
41241517 00000000 GPGGA,032709.70,3807.38221921,N,11430.58922393,E,2,07,1.3,77.806,M,-14.614,M,12.9,0100*64
$GPZDA,032709.709,26,06,2015,00,00*5
41241617 00000000 GPGGA,032709.80,3807.38222238,N,11430.58922234,E,2,07,1.3,77.815,M,-14.614,M,13.0,0100*6D
$GPZDA,032709.810,26,06,2015,00,00*5
41241717 00000000 GPGGA,032709.90,3807.38221939,N,11430.58922217,E,2,07,1.3,77.803,M,-14.614,M,13.1,0100*62
$GPZDA,032709.911,26,06,2015,00,00*5
41241817 00000014 GPGGA,032710.00,3807.38222209,N,11430.58922065,E,2,07,1.3,77.811,M,-14.614,M,13.2,0100*6F
$GPZDA,032710.028,26,06,2015,00,00*5
41241917 00000000 GPGGA,032710.10,3807.38222044,N,11430.58922157,E,2,07,1.3,77.815,M,-14.614,M,13.3,0100*60
$GPZDA,032710.108,26,06,2015,00,00*5
41242017 00000000 GPGGA,032710.20,3807.38222111,N,11430.58922107,E,2,07,1.3,77.804,M,-14.614,M,13.4,0100*60
$GPZDA,032710.210,26,06,2015,00,00*5
41242117 00000000 GPGGA,032710.30,3807.38222201,N,11430.58922084,E,2,07,1.3,77.807,M,-14.614,M,13.5,0100*6B
$GPZDA,032710.310,26,06,2015,00,00*5
41242217 00000000 GPGGA,032710.40,3807.38222192,N,11430.58922148,E,2,07,1.3,77.808,M,-14.614,M,13.6,0100*68
$GPZDA,032710.409,26,06,2015,00,00*5
41242317 00000000 GPGGA,032710.50,3807.38222220,N,11430.58922119,E,2,07,1.3,77.810,M,-14.614,M,13.7,0100*6F
$GPZDA,032710.509,26,06,2015,00,00*5
41242417 00000000 GPGGA,032710.60,3807.38222293,N,11430.58922180,E,2,07,1.3,77.800,M,-14.614,M,13.8,0100*6A
$GPZDA,032710.610,26,06,2015,00,00*5
41242517 00000000 GPGGA,032710.70,3807.38222283,N,11430.58922093,E,2,07,1.3,77.806,M,-14.614,M,13.9,0100*6E
$GPZDA,032710.710,26,06,2015,00,00*5
41242617 00000000 GPGGA,032710.80,3807.38222208,N,11430.58922119,E,2,07,1.3,77.799,M,-14.614,M,14.0,0100*66
$GPZDA,032710.810,26,06,2015,00,00*5
41242717 00000000 GPGGA,032710.90,3807.38222348,N,11430.58922029,E,2,07,1.3,77.804,M,-14.614,M,14.1,0100*6A
$GPZDA,032710.909,26,06,2015,00,00*5
41242817 00000014 GPGGA,032711.00,3807.38222147,N,11430.58921895,E,2,07,1.3,77.800,M,-14.614,M,14.2,0100*64
$GPZDA,032711.017,26,06,2015,00,00*5
41242917 00000000 GPGGA,032711.10,3807.38222247,N,11430.58921966,E,2,07,1.3,77.798,M,-14.614,M,14.3,0100*64
$GPZDA,032711.110,26,06,2015,00,00*5
41243017 00000000 GPGGA,032711.20,3807.38222236,N,11430.58921982,E,2,07,1.3,77.801,M,-14.614,M,14.4,0100*63
$GPZDA,032711.209,26,06,2015,00,00*5
41243117 00000000 GPGGA,032711.30,3807.38222245,N,11430.58921791,E,2,07,1.3,77.789,M,-14.614,M,14.5,0100*64
$GPZDA,032711.310,26,06,2015,00,00*5
41243217 00000000 GPGGA,032711.40,3807.38222164,N,11430.58922088,E,2,07,1.3,77.797,M,-14.614,M,14.6,0100*63
$GPZDA,032711.411,26,06,2015,00,00*5
41243317 00000000 GPGGA,032711.50,3807.38222368,N,11430.58922018,E,2,07,1.3,77.805,M,-14.614,M,14.7,0100*60
$GPZDA,032711.510,26,06,2015,00,00*5
41243417 00000000 GPGGA,032711.60,3807.38222324,N,11430.58921909,E,2,07,1.3,77.795,M,-14.614,M,14.8,0100*68
$GPZDA,032711.610,26,06,2015,00,00*5
41243517 00000000 GPGGA,032711.70,3807.38222331,N,11430.58921898,E,2,07,1.3,77.794,M,-14.614,M,14.9,0100*64
$GPZDA,032711.710,26,06,2015,00,00*5
41243617 00000000 GPGGA,032711.80,3807.38222216,N,11430.58921873,E,2,07,1.3,77.790,M,-14.614,M,15.0,0100*66
$GPZDA,032711.810,26,06,2015,00,00*5
41243717 00000000 GPGGA,032711.90,3807.38222319,N,11430.58922005,E,2,07,1.3,77.795,M,-14.614,M,15.1,0100*67
$GPZDA,032711.910,26,06,2015,00,00*5
41243817 00000014 GPGGA,032712.00,3807.38222415,N,11430.58921822,E,2,07,1.3,77.800,M,-14.614,M,6.4,0100*5C
$GPZDA,032712.016,26,06,2015,00,00*50
41243917 00000000 GPGGA,032712.10,3807.38222446,N,11430.58921850,E,2,07,1.3,77.801,M,-14.614,M,6.5,0100*5E
$GPZDA,032712.109,26,06,2015,00,00*5F
41244017 00000000 GPGGA,032712.20,3807.38222464,N,11430.58921902,E,2,07,1.3,77.803,M,-14.614,M,6.6,0100*5A
$GPZDA,032712.210,26,06,2015,00,00*54
41244117 00000000 GPGGA,032712.30,3807.38222577,N,11430.58921853,E,2,07,1.3,77.798,M,-14.614,M,6.7,0100*51
$GPZDA,032712.310,26,06,2015,00,00*55
41244217 00000000 GPGGA,032712.40,3807.38222417,N,11430.58921930,E,2,07,1.3,77.793,M,-14.614,M,6.8,0100*51
$GPZDA,032712.410,26,06,2015,00,00*52
41244317 00000000 GPGGA,032712.50,3807.38222572,N,11430.58921928,E,2,07,1.3,77.796,M,-14.614,M,6.9,0100*5F
$GPZDA,032712.509,26,06,2015,00,00*5B
41244417 00000000 GPGGA,032712.60,3807.38222534,N,11430.58921831,E,2,07,1.3,77.797,M,-14.614,M,7.0,0100*5E
$GPZDA,032712.610,26,06,2015,00,00*50
41244517 00000000 GPGGA,032712.70,3807.38222584,N,11430.58921922,E,2,07,1.3,77.791,M,-14.614,M,7.1,0100*50
$GPZDA,032712.711,26,06,2015,00,00*50
41244617 00000000 GPGGA,032712.80,3807.38222485,N,11430.58921835,E,2,07,1.3,77.794,M,-14.614,M,7.2,0100*5E
$GPZDA,032712.809,26,06,2015,00,00*56
41244717 00000000 GPGGA,032712.90,3807.38222607,N,11430.58922003,E,2,07,1.3,77.801,M,-14.614,M,7.3,0100*5B
$GPZDA,032712.908,26,06,2015,00,00*56
41244817 00000014 GPGGA,032713.00,3807.38221947,N,11430.58906655,E,5,07,1.3,77.521,M,-14.614,M,17.0,1000*62
$GPZDA,032713.017,26,06,2015,00,00*5
41244917 00000000 GPGGA,032713.10,3807.38221997,N,11430.58906648,E,5,07,1.3,77.525,M,-14.614,M,17.0,1000*66
$GPZDA,032713.111,26,06,2015,00,00*5
41245017 00000000 GPGGA,032713.20,3807.38221969,N,11430.58906791,E,5,07,1.3,77.524,M,-14.614,M,17.0,1000*60
$GPZDA,032713.209,26,06,2015,00,00*5
41245117 00000000 GPGGA,032713.30,3807.38222063,N,11430.58906702,E,5,07,1.3,77.524,M,-14.614,M,17.0,1000*6B
$GPZDA,032713.309,26,06,2015,00,00*5
41245217 00000000 GPGGA,032713.40,3807.38222004,N,11430.58906533,E,5,07,1.3,77.520,M,-14.614,M,17.0,1000*69
$GPZDA,032713.414,26,06,2015,00,00*5
41245317 00000000 GPGGA,032713.50,3807.38222066,N,11430.58906681,E,5,07,1.3,77.518,M,-14.614,M,17.0,1000*6D
$GPZDA,032713.510,26,06,2015,00,00*5
41245417 00000000 GPGGA,032713.60,3807.38221989,N,11430.58906520,E,5,07,1.3,77.522,M,-14.614,M,17.0,1000*64
$GPZDA,032713.610,26,06,2015,00,00*5
41245517 00000000 GPGGA,032713.70,3807.38222228,N,11430.58906787,E,5,07,1.3,77.523,M,-14.614,M,17.0,1000*68
$GPZDA,032713.709,26,06,2015,00,00*5
41245617 00000000 GPGGA,032713.80,3807.38222160,N,11430.58906602,E,5,07,1.3,77.519,M,-14.614,M,17.0,1000*6D
$GPZDA,032713.810,26,06,2015,00,00*5
41245717 00000000 GPGGA,032713.90,3807.38222129,N,11430.58906606,E,5,07,1.3,77.523,M,-14.614,M,17.0,1000*6C
$GPZDA,032713.910,26,06,2015,00,00*5
41245817 00000014 GPGGA,032714.00,3807.38222155,N,11430.58906669,E,5,07,1.3,77.525,M,-14.614,M,18.0,1000*69
$GPZDA,032714.015,26,06,2015,00,00*5
41245917 00000000 GPGGA,032714.10,3807.38222169,N,11430.58906515,E,5,07,1.3,77.520,M,-14.614,M,18.0,1000*6A
$GPZDA,032714.110,26,06,2015,00,00*5
41246017 00000000 GPGGA,032714.20,3807.38222050,N,11430.58906572,E,5,07,1.3,77.522,M,-14.614,M,18.0,1000*61
$GPZDA,032714.208,26,06,2015,00,00*5
41246117 00000000 GPGGA,032714.30,3807.38221980,N,11430.58906707,E,5,07,1.3,77.525,M,-14.614,M,18.0,1000*60
$GPZDA,032714.310,26,06,2015,00,00*5
41246217 00000000 GPGGA,032714.40,3807.38222078,N,11430.58906540,E,5,07,1.3,77.524,M,-14.614,M,18.0,1000*6A
$GPZDA,032714.409,26,06,2015,00,00*5
41246317 00000000 GPGGA,032714.50,3807.38222055,N,11430.58906670,E,5,07,1.3,77.527,M,-14.614,M,18.0,1000*67
$GPZDA,032714.509,26,06,2015,00,00*5
41246417 00000000 GPGGA,032714.60,3807.38222271,N,11430.58906646,E,5,07,1.3,77.522,M,-14.614,M,18.0,1000*60
$GPZDA,032714.610,26,06,2015,00,00*5
41246517 00000000 GPGGA,032714.70,3807.38222014,N,11430.58906484,E,5,07,1.3,77.524,M,-14.614,M,18.0,1000*6A
$GPZDA,032714.710,26,06,2015,00,00*5
41246617 00000000 GPGGA,032714.80,3807.38222014,N,11430.58906687,E,5,07,1.3,77.531,M,-14.614,M,18.0,1000*60
$GPZDA,032714.810,26,06,2015,00,00*5
41246717 00000000 GPGGA,032714.90,3807.38222051,N,11430.58906575,E,5,07,1.3,77.524,M,-14.614,M,18.0,1000*6A
$GPZDA,032714.909,26,06,2015,00,00*5
41246817 00000014 GPGGA,032715.00,3807.38222149,N,11430.58906736,E,5,07,1.3,77.529,M,-14.614,M,19.0,1000*63
$GPZDA,032715.015,26,06,2015,00,00*5
41246917 00000000 GPGGA,032715.10,3807.38222161,N,11430.58906562,E,5,07,1.3,77.522,M,-14.614,M,19.0,1000*60
$GPZDA,032715.110,26,06,2015,00,00*5
41247017 00000000 GPGGA,032715.20,3807.38222169,N,11430.58906578,E,5,07,1.3,77.520,M,-14.614,M,19.0,1000*62
$GPZDA,032715.209,26,06,2015,00,00*5
41247117 00000000 GPGGA,032715.30,3807.38222080,N,11430.58906584,E,5,07,1.3,77.529,M,-14.614,M,19.0,1000*6F
$GPZDA,032715.308,26,06,2015,00,00*5
41247217 00000000 GPGGA,032715.40,3807.38222239,N,11430.58906546,E,5,07,1.3,77.523,M,-14.614,M,19.0,1000*6C
$GPZDA,032715.409,26,06,2015,00,00*5
41247317 00000000 GPGGA,032715.50,3807.38222282,N,11430.58906501,E,5,07,1.3,77.524,M,-14.614,M,19.0,1000*69
$GPZDA,032715.508,26,06,2015,00,00*5
41247417 00000000 GPGGA,032715.60,3807.38222212,N,11430.58906600,E,5,07,1.3,77.526,M,-14.614,M,19.0,1000*63
$GPZDA,032715.609,26,06,2015,00,00*5
41247517 00000000 GPGGA,032715.70,3807.38222089,N,11430.58906557,E,5,07,1.3,77.526,M,-14.614,M,19.0,1000*63
$GPZDA,032715.708,26,06,2015,00,00*5
41247617 00000000 GPGGA,032715.80,3807.38222208,N,11430.58906511,E,5,07,1.3,77.525,M,-14.614,M,19.0,1000*66
$GPZDA,032715.810,26,06,2015,00,00*5
41247717 00000000 GPGGA,032715.90,3807.38222184,N,11430.58906498,E,5,07,1.3,77.527,M,-14.614,M,19.0,1000*62
$GPZDA,032715.911,26,06,2015,00,00*5
41247817 00000014 GPGGA,032716.00,3807.38222067,N,11430.58906517,E,5,07,1.3,77.526,M,-14.614,M,20.0,1000*69
$GPZDA,032716.016,26,06,2015,00,00*5
41247917 00000000 GPGGA,032716.10,3807.38222350,N,11430.58906586,E,5,07,1.3,77.528,M,-14.614,M,20.0,1000*69
$GPZDA,032716.109,26,06,2015,00,00*5
41248017 00000000 GPGGA,032716.20,3807.38222153,N,11430.58906554,E,5,07,1.3,77.533,M,-14.614,M,20.0,1000*6E
$GPZDA,032716.210,26,06,2015,00,00*5
41248117 00000000 GPGGA,032716.30,3807.38222266,N,11430.58906453,E,5,07,1.3,77.525,M,-14.614,M,20.0,1000*6B
$GPZDA,032716.310,26,06,2015,00,00*5
41248217 00000000 GPGGA,032716.40,3807.38222120,N,11430.58906711,E,5,07,1.3,77.530,M,-14.614,M,20.0,1000*6C
$GPZDA,032716.409,26,06,2015,00,00*5
41248317 00000000 GPGGA,032716.50,3807.38222209,N,11430.58906470,E,5,07,1.3,77.522,M,-14.614,M,20.0,1000*62
$GPZDA,032716.509,26,06,2015,00,00*5
41248417 00000000 GPGGA,032716.60,3807.38222288,N,11430.58906460,E,5,07,1.3,77.524,M,-14.614,M,20.0,1000*6F
$GPZDA,032716.609,26,06,2015,00,00*5
41248517 00000000 GPGGA,032716.70,3807.38222174,N,11430.58906535,E,5,07,1.3,77.528,M,-14.614,M,20.0,1000*63
$GPZDA,032716.709,26,06,2015,00,00*5
41248617 00000000 GPGGA,032716.80,3807.38222290,N,11430.58906446,E,5,07,1.3,77.527,M,-14.614,M,20.0,1000*6F
$GPZDA,032716.825,26,06,2015,00,00*5
41248717 00000000 GPGGA,032716.90,3807.38223026,N,11430.58905737,E,5,07,1.3,77.539,M,-14.614,M,7.0,1000*5C
$GPZDA,032716.909,26,06,2015,00,00*53
41248817 00000014 GPGGA,032717.00,3807.38222914,N,11430.58905721,E,5,07,1.3,77.541,M,-14.614,M,8.0,1000*5A
$GPZDA,032717.015,26,06,2015,00,00*56
41248917 00000000 GPGGA,032717.10,3807.38223210,N,11430.58905750,E,5,07,1.3,77.539,M,-14.614,M,8.0,1000*5C
$GPZDA,032717.110,26,06,2015,00,00*52
41249017 00000000 GPGGA,032717.20,3807.38222970,N,11430.58905705,E,5,07,1.3,77.532,M,-14.614,M,8.0,1000*58
$GPZDA,032717.210,26,06,2015,00,00*51
41249117 00000000 GPGGA,032717.30,3807.38222978,N,11430.58905618,E,5,07,1.3,77.537,M,-14.614,M,8.0,1000*59
$GPZDA,032717.309,26,06,2015,00,00*58
41249217 00000000 GPGGA,032717.40,3807.38223113,N,11430.58905701,E,5,07,1.3,77.538,M,-14.614,M,8.0,1000*5C
$GPZDA,032717.409,26,06,2015,00,00*5F
41249317 00000000 GPGGA,032717.50,3807.38223135,N,11430.58905758,E,5,07,1.3,77.545,M,-14.614,M,8.0,1000*5F
$GPZDA,032717.510,26,06,2015,00,00*56
41249417 00000000 GPGGA,032717.60,3807.38223104,N,11430.58905654,E,5,07,1.3,77.536,M,-14.614,M,8.0,1000*57
$GPZDA,032717.609,26,06,2015,00,00*5D
41249517 00000000 GPGGA,032717.70,3807.38222879,N,11430.58905686,E,5,07,1.3,77.540,M,-14.614,M,8.0,1000*5A
$GPZDA,032717.709,26,06,2015,00,00*5C
41249617 00000000 GPGGA,032717.80,3807.38223072,N,11430.58905718,E,5,07,1.3,77.539,M,-14.614,M,8.0,1000*5F
$GPZDA,032717.809,26,06,2015,00,00*53
41249717 00000000 GPGGA,032717.90,3807.38222960,N,11430.58905756,E,5,07,1.3,77.539,M,-14.614,M,8.0,1000*5F
$GPZDA,032717.910,26,06,2015,00,00*5A
41249817 00000014 GPGGA,032718.00,3807.38223096,N,11430.58905846,E,5,07,1.3,77.544,M,-14.614,M,9.0,1000*5D
$GPZDA,032718.017,26,06,2015,00,00*5B
41249917 00000000 GPGGA,032718.10,3807.38223432,N,11430.58905595,E,5,07,1.3,77.540,M,-14.614,M,9.0,1000*51
$GPZDA,032718.108,26,06,2015,00,00*54
41250017 00000000 GPGGA,032718.20,3807.38222968,N,11430.58905753,E,5,07,1.3,77.542,M,-14.614,M,9.0,1000*5B
$GPZDA,032718.210,26,06,2015,00,00*5E
41250117 00000000 GPGGA,032718.30,3807.38223020,N,11430.58905777,E,5,07,1.3,77.544,M,-14.614,M,9.0,1000*5E
$GPZDA,032718.310,26,06,2015,00,00*5F
41250217 00000000 GPGGA,032718.40,3807.38223329,N,11430.58905484,E,5,07,1.3,77.536,M,-14.614,M,9.0,1000*59
$GPZDA,032718.409,26,06,2015,00,00*50
41250317 00000000 GPGGA,032718.50,3807.38223062,N,11430.58905707,E,5,07,1.3,77.545,M,-14.614,M,9.0,1000*58
$GPZDA,032718.507,26,06,2015,00,00*5F
41250417 00000000 GPGGA,032718.60,3807.38223305,N,11430.58905619,E,5,07,1.3,77.544,M,-14.614,M,9.0,1000*56
$GPZDA,032718.609,26,06,2015,00,00*52
41250517 00000000 GPGGA,032718.70,3807.38223232,N,11430.58905714,E,5,07,1.3,77.543,M,-14.614,M,9.0,1000*59
$GPZDA,032718.710,26,06,2015,00,00*5B
41250617 00000000 GPGGA,032718.80,3807.38223101,N,11430.58905706,E,5,07,1.3,77.540,M,-14.614,M,9.0,1000*55
$GPZDA,032718.809,26,06,2015,00,00*5C
41250717 00000000 GPGGA,032718.90,3807.38223225,N,11430.58905567,E,5,07,1.3,77.537,M,-14.614,M,9.0,1000*54
$GPZDA,032718.909,26,06,2015,00,00*5D
41250817 00000014 GPGGA,032719.00,3807.38223347,N,11430.58905764,E,5,07,1.3,77.546,M,-14.614,M,10.0,1000*66
$GPZDA,032719.016,26,06,2015,00,00*5
41250917 00000000 GPGGA,032719.10,3807.38223285,N,11430.58905479,E,5,07,1.3,77.551,M,-14.614,M,10.0,1000*61
$GPZDA,032719.110,26,06,2015,00,00*5
41251017 00000000 GPGGA,032719.20,3807.38223228,N,11430.58905617,E,5,07,1.3,77.537,M,-14.614,M,10.0,1000*6F
$GPZDA,032719.209,26,06,2015,00,00*5
41251117 00000000 GPGGA,032719.30,3807.38223341,N,11430.58905664,E,5,07,1.3,77.543,M,-14.614,M,10.0,1000*67
$GPZDA,032719.309,26,06,2015,00,00*5
41251217 00000000 GPGGA,032719.40,3807.38223346,N,11430.58905638,E,5,07,1.3,77.541,M,-14.614,M,10.0,1000*6C
$GPZDA,032719.409,26,06,2015,00,00*5
41251317 00000000 GPGGA,032719.50,3807.38223279,N,11430.58905643,E,5,07,1.3,77.548,M,-14.614,M,10.0,1000*65
$GPZDA,032719.510,26,06,2015,00,00*5
41251417 00000000 GPGGA,032719.60,3807.38223385,N,11430.58905623,E,5,07,1.3,77.552,M,-14.614,M,10.0,1000*69
$GPZDA,032719.607,26,06,2015,00,00*5
41251517 00000000 GPGGA,032719.70,3807.38223277,N,11430.58905655,E,5,07,1.3,77.543,M,-14.614,M,10.0,1000*65
$GPZDA,032719.709,26,06,2015,00,00*5
41251617 00000000 GPGGA,032719.80,3807.38223284,N,11430.58905607,E,5,07,1.3,77.546,M,-14.614,M,10.0,1000*64
$GPZDA,032719.808,26,06,2015,00,00*5
41251717 00000000 GPGGA,032719.90,3807.38223277,N,11430.58905612,E,5,07,1.3,77.544,M,-14.614,M,10.0,1000*6F
$GPZDA,032719.910,26,06,2015,00,00*5
41251817 00000014 GPGGA,032720.00,3807.38223242,N,11430.58905513,E,5,07,1.3,77.543,M,-14.614,M,11.0,1000*6E
$GPZDA,032720.015,26,06,2015,00,00*5
41251917 00000000 GPGGA,032720.10,3807.38223538,N,11430.58905705,E,5,07,1.3,77.553,M,-14.614,M,11.0,1000*61
$GPZDA,032720.109,26,06,2015,00,00*5
41252017 00000000 GPGGA,032720.20,3807.38223357,N,11430.58905574,E,5,07,1.3,77.548,M,-14.614,M,11.0,1000*63
$GPZDA,032720.212,26,06,2015,00,00*5
41252117 00000000 GPGGA,032720.30,3807.38223316,N,11430.58905744,E,5,07,1.3,77.544,M,-14.614,M,11.0,1000*6A
$GPZDA,032720.310,26,06,2015,00,00*5
41252217 00000000 GPGGA,032720.40,3807.38223233,N,11430.58905661,E,5,07,1.3,77.551,M,-14.614,M,11.0,1000*69
$GPZDA,032720.409,26,06,2015,00,00*5
41252317 00000000 GPGGA,032720.50,3807.38223347,N,11430.58905488,E,5,07,1.3,77.547,M,-14.614,M,11.0,1000*68
$GPZDA,032720.509,26,06,2015,00,00*5
41252417 00000000 GPGGA,032720.60,3807.38223414,N,11430.58905534,E,5,07,1.3,77.545,M,-14.614,M,11.0,1000*6E
$GPZDA,032720.610,26,06,2015,00,00*5
41252517 00000000 GPGGA,032720.70,3807.38223270,N,11430.58905573,E,5,07,1.3,77.559,M,-14.614,M,11.0,1000*65
$GPZDA,032720.709,26,06,2015,00,00*5
41252617 00000000 GPGGA,032720.80,3807.38223484,N,11430.58905730,E,5,07,1.3,77.547,M,-14.614,M,11.0,1000*6D
$GPZDA,032720.810,26,06,2015,00,00*5
41252717 00000000 GPGGA,032720.90,3807.38223363,N,11430.58905616,E,5,07,1.3,77.549,M,-14.614,M,11.0,1000*69
$GPZDA,032720.910,26,06,2015,00,00*5
41252817 00000014 GPGGA,032721.00,3807.38223441,N,11430.58905554,E,5,07,1.3,77.550,M,-14.614,M,12.0,1000*68
$GPZDA,032721.017,26,06,2015,00,00*5
41252917 00000000 GPGGA,032721.10,3807.38223530,N,11430.58905695,E,5,07,1.3,77.557,M,-14.614,M,12.0,1000*67
$GPZDA,032721.109,26,06,2015,00,00*5
41253017 00000000 GPGGA,032721.20,3807.38223377,N,11430.58905621,E,5,07,1.3,77.553,M,-14.614,M,12.0,1000*6A
$GPZDA,032721.210,26,06,2015,00,00*5
41253117 00000000 GPGGA,032721.30,3807.38223183,N,11430.58905728,E,5,07,1.3,77.557,M,-14.614,M,12.0,1000*6E
$GPZDA,032721.310,26,06,2015,00,00*5
41253217 00000000 GPGGA,032721.40,3807.38223410,N,11430.58905815,E,5,07,1.3,77.550,M,-14.614,M,12.0,1000*60
$GPZDA,032721.410,26,06,2015,00,00*5
41253317 00000000 GPGGA,032721.50,3807.38223383,N,11430.58905706,E,5,07,1.3,77.553,M,-14.614,M,12.0,1000*62
$GPZDA,032721.509,26,06,2015,00,00*5
41253417 00000000 GPGGA,032721.60,3807.38223616,N,11430.58905653,E,5,07,1.3,77.563,M,-14.614,M,12.0,1000*6A
$GPZDA,032721.610,26,06,2015,00,00*5
41253517 00000000 GPGGA,032721.70,3807.38223553,N,11430.58905464,E,5,07,1.3,77.549,M,-14.614,M,12.0,1000*67
$GPZDA,032721.710,26,06,2015,00,00*5
41253617 00000000 GPGGA,032721.80,3807.38223483,N,11430.58905859,E,5,07,1.3,77.558,M,-14.614,M,12.0,1000*66
$GPZDA,032721.810,26,06,2015,00,00*5
41253717 00000000 GPGGA,032721.90,3807.38223528,N,11430.58905533,E,5,07,1.3,77.553,M,-14.614,M,12.0,1000*6D
$GPZDA,032721.909,26,06,2015,00,00*5
41253817 00000014 GPGGA,032722.00,3807.38224434,N,11430.58926764,E,2,07,1.3,77.917,M,-14.614,M,10.0,0100*64
$GPZDA,032722.016,26,06,2015,00,00*5
41253917 00000000 GPGGA,032722.10,3807.38224510,N,11430.58926612,E,2,07,1.3,77.916,M,-14.614,M,10.1,0100*62
$GPZDA,032722.109,26,06,2015,00,00*5
41254017 00000000 GPGGA,032722.20,3807.38224527,N,11430.58926644,E,2,07,1.3,77.916,M,-14.614,M,10.2,0100*65
$GPZDA,032722.209,26,06,2015,00,00*5
41254117 00000000 GPGGA,032722.30,3807.38224666,N,11430.58926657,E,2,07,1.3,77.916,M,-14.614,M,10.3,0100*61
$GPZDA,032722.310,26,06,2015,00,00*5
41254217 00000000 GPGGA,032722.40,3807.38224398,N,11430.58926655,E,2,07,1.3,77.913,M,-14.614,M,10.4,0100*62
$GPZDA,032722.408,26,06,2015,00,00*5
41254317 00000000 GPGGA,032722.50,3807.38224425,N,11430.58926766,E,2,07,1.3,77.909,M,-14.614,M,10.5,0100*69
$GPZDA,032722.509,26,06,2015,00,00*5
41254417 00000000 GPGGA,032722.60,3807.38224603,N,11430.58926697,E,2,07,1.3,77.913,M,-14.614,M,10.6,0100*6B
$GPZDA,032722.608,26,06,2015,00,00*5
41254517 00000000 GPGGA,032722.70,3807.38224517,N,11430.58926680,E,2,07,1.3,77.915,M,-14.614,M,10.7,0100*6D
$GPZDA,032722.710,26,06,2015,00,00*5
41254617 00000000 GPGGA,032722.80,3807.38224561,N,11430.58926734,E,2,07,1.3,77.916,M,-14.614,M,10.8,0100*61
$GPZDA,032722.810,26,06,2015,00,00*5
41254717 00000000 GPGGA,032722.90,3807.38224651,N,11430.58926575,E,2,07,1.3,77.917,M,-14.614,M,10.9,0100*67
$GPZDA,032722.909,26,06,2015,00,00*5
41254817 00000014 GPGGA,032723.00,3807.38224595,N,11430.58926571,E,2,07,1.3,77.913,M,-14.614,M,11.0,0100*6C
$GPZDA,032723.017,26,06,2015,00,00*5
41254917 00000000 GPGGA,032723.10,3807.38224496,N,11430.58926574,E,2,07,1.3,77.915,M,-14.614,M,11.1,0100*6D
$GPZDA,032723.109,26,06,2015,00,00*5
41255017 00000000 GPGGA,032723.20,3807.38224850,N,11430.58926563,E,2,07,1.3,77.922,M,-14.614,M,11.2,0100*69
$GPZDA,032723.209,26,06,2015,00,00*5
41255117 00000000 GPGGA,032723.30,3807.38224334,N,11430.58926431,E,2,07,1.3,77.906,M,-14.614,M,11.3,0100*60
$GPZDA,032723.311,26,06,2015,00,00*5
41255217 00000000 GPGGA,032723.40,3807.38224457,N,11430.58926721,E,2,07,1.3,77.921,M,-14.614,M,11.4,0100*65
$GPZDA,032723.410,26,06,2015,00,00*5
41255317 00000000 GPGGA,032723.50,3807.38224622,N,11430.58926547,E,2,07,1.3,77.920,M,-14.614,M,11.5,0100*66
$GPZDA,032723.511,26,06,2015,00,00*5
41255417 00000000 GPGGA,032723.60,3807.38224709,N,11430.58926484,E,2,07,1.3,77.915,M,-14.614,M,11.6,0100*66
$GPZDA,032723.613,26,06,2015,00,00*5
41255517 00000000 GPGGA,032723.70,3807.38224780,N,11430.58926608,E,2,07,1.3,77.900,M,-14.614,M,11.7,0100*65
$GPZDA,032723.708,26,06,2015,00,00*5
41255617 00000000 GPGGA,032723.80,3807.38224804,N,11430.58926622,E,2,07,1.3,77.913,M,-14.614,M,11.8,0100*6C
$GPZDA,032723.810,26,06,2015,00,00*5
41255717 00000000 GPGGA,032723.90,3807.38224639,N,11430.58926588,E,2,07,1.3,77.908,M,-14.614,M,11.9,0100*65
$GPZDA,032723.910,26,06,2015,00,00*5
41255817 00000014 GPGGA,032724.00,3807.38224755,N,11430.58926585,E,2,07,1.3,77.908,M,-14.614,M,12.0,0100*67
$GPZDA,032724.017,26,06,2015,00,00*5
41255917 00000000 GPGGA,032724.10,3807.38224628,N,11430.58926484,E,2,07,1.3,77.909,M,-14.614,M,12.1,0100*6D
$GPZDA,032724.110,26,06,2015,00,00*5
41256017 00000000 GPGGA,032724.20,3807.38224833,N,11430.58926466,E,2,07,1.3,77.903,M,-14.614,M,12.2,0100*6F
$GPZDA,032724.210,26,06,2015,00,00*5
41256117 00000000 GPGGA,032724.30,3807.38224589,N,11430.58926676,E,2,07,1.3,77.903,M,-14.614,M,12.3,0100*60
$GPZDA,032724.310,26,06,2015,00,00*5
41256217 00000000 GPGGA,032724.40,3807.38224813,N,11430.58926521,E,2,07,1.3,77.907,M,-14.614,M,12.4,0100*6B
$GPZDA,032724.412,26,06,2015,00,00*5
41256317 00000000 GPGGA,032724.50,3807.38224711,N,11430.58926558,E,2,07,1.3,77.909,M,-14.614,M,12.5,0100*66
$GPZDA,032724.510,26,06,2015,00,00*5
41256417 00000000 GPGGA,032724.60,3807.38224834,N,11430.58926607,E,2,07,1.3,77.905,M,-14.614,M,12.6,0100*6B
$GPZDA,032724.609,26,06,2015,00,00*5
41256517 00000000 GPGGA,032724.70,3807.38224895,N,11430.58926515,E,2,07,1.3,77.902,M,-14.614,M,12.7,0100*67
$GPZDA,032724.710,26,06,2015,00,00*5
41256617 00000000 GPGGA,032724.80,3807.38224862,N,11430.58926690,E,2,07,1.3,77.907,M,-14.614,M,12.8,0100*64
$GPZDA,032724.809,26,06,2015,00,00*5
41256717 00000000 GPGGA,032724.90,3807.38224853,N,11430.58926340,E,2,07,1.3,77.900,M,-14.614,M,12.9,0100*69
$GPZDA,032724.909,26,06,2015,00,00*5
41256817 00000014 GPGGA,032725.00,3807.38224629,N,11430.58926554,E,2,07,1.3,77.911,M,-14.614,M,13.0,0100*69
$GPZDA,032725.017,26,06,2015,00,00*5
41256917 00000000 GPGGA,032725.10,3807.38224840,N,11430.58926671,E,2,07,1.3,77.915,M,-14.614,M,13.1,0100*68
$GPZDA,032725.110,26,06,2015,00,00*5
41257017 00000000 GPGGA,032725.20,3807.38224634,N,11430.58926605,E,2,07,1.3,77.905,M,-14.614,M,13.2,0100*67
$GPZDA,032725.210,26,06,2015,00,00*5
41257117 00000000 GPGGA,032725.30,3807.38224734,N,11430.58926599,E,2,07,1.3,77.914,M,-14.614,M,13.3,0100*60
$GPZDA,032725.309,26,06,2015,00,00*5
41257217 00000000 GPGGA,032725.40,3807.38224903,N,11430.58926675,E,2,07,1.3,77.901,M,-14.614,M,13.4,0100*6F
$GPZDA,032725.410,26,06,2015,00,00*5
41257317 00000000 GPGGA,032725.50,3807.38224726,N,11430.58926633,E,2,07,1.3,77.915,M,-14.614,M,13.5,0100*61
$GPZDA,032725.509,26,06,2015,00,00*5
41257417 00000000 GPGGA,032725.60,3807.38224795,N,11430.58926665,E,2,07,1.3,77.913,M,-14.614,M,13.6,0100*6C
$GPZDA,032725.610,26,06,2015,00,00*5
41257517 00000000 GPGGA,032725.70,3807.38225037,N,11430.58926712,E,2,07,1.3,77.912,M,-14.614,M,13.7,0100*62
$GPZDA,032725.710,26,06,2015,00,00*5
41257617 00000000 GPGGA,032725.80,3807.38225115,N,11430.58926515,E,2,07,1.3,77.907,M,-14.614,M,13.8,0100*62
$GPZDA,032725.810,26,06,2015,00,00*5
41257717 00000000 GPGGA,032725.90,3807.38224870,N,11430.58926657,E,2,07,1.3,77.908,M,-14.614,M,13.9,0100*63
$GPZDA,032725.909,26,06,2015,00,00*5
41257817 00000014 GPGGA,032726.00,3807.38224741,N,11430.58926458,E,2,07,1.3,77.911,M,-14.614,M,14.0,0100*6F
$GPZDA,032726.018,26,06,2015,00,00*5
41257917 00000000 GPGGA,032726.10,3807.38224778,N,11430.58926516,E,2,07,1.3,77.913,M,-14.614,M,14.1,0100*6C
$GPZDA,032726.111,26,06,2015,00,00*5
41258017 00000000 GPGGA,032726.20,3807.38224816,N,11430.58926486,E,2,07,1.3,77.909,M,-14.614,M,14.2,0100*68
$GPZDA,032726.209,26,06,2015,00,00*5
41258117 00000000 GPGGA,032726.30,3807.38224854,N,11430.58926508,E,2,07,1.3,77.910,M,-14.614,M,14.3,0100*61
$GPZDA,032726.308,26,06,2015,00,00*5
41258217 00000000 GPGGA,032726.40,3807.38224863,N,11430.58926617,E,2,07,1.3,77.914,M,-14.614,M,14.4,0100*6C
$GPZDA,032726.410,26,06,2015,00,00*5
41258317 00000000 GPGGA,032726.50,3807.38224894,N,11430.58926451,E,2,07,1.3,77.909,M,-14.614,M,14.5,0100*68
$GPZDA,032726.508,26,06,2015,00,00*5
41258417 00000000 GPGGA,032726.60,3807.38224815,N,11430.58926484,E,2,07,1.3,77.912,M,-14.614,M,14.6,0100*63
$GPZDA,032726.610,26,06,2015,00,00*5
41258517 00000000 GPGGA,032726.70,3807.38224965,N,11430.58926476,E,2,07,1.3,77.911,M,-14.614,M,14.7,0100*6B
$GPZDA,032726.710,26,06,2015,00,00*5
41258617 00000000 GPGGA,032726.80,3807.38224795,N,11430.58926607,E,2,07,1.3,77.906,M,-14.614,M,14.8,0100*68
$GPZDA,032726.815,26,06,2015,00,00*5
41258717 00000000 GPGGA,032726.90,3807.38224891,N,11430.58926496,E,2,07,1.3,77.904,M,-14.614,M,14.9,0100*6B
$GPZDA,032726.909,26,06,2015,00,00*5
41258817 00000014 GPGGA,032727.00,3807.38224775,N,11430.58926061,E,2,07,1.3,77.903,M,-14.614,M,15.0,0100*65
$GPZDA,032727.018,26,06,2015,00,00*5
41258917 00000000 GPGGA,032727.10,3807.38224855,N,11430.58926349,E,2,07,1.3,77.901,M,-14.614,M,15.1,0100*63
$GPZDA,032727.109,26,06,2015,00,00*5
41259017 00000000 GPGGA,032727.20,3807.38224733,N,11430.58926333,E,2,07,1.3,77.902,M,-14.614,M,15.2,0100*62
$GPZDA,032727.210,26,06,2015,00,00*5
41259117 00000000 GPGGA,032727.30,3807.38224968,N,11430.58926041,E,2,07,1.3,77.901,M,-14.614,M,15.3,0100*67
$GPZDA,032727.310,26,06,2015,00,00*5
41259217 00000000 GPGGA,032727.40,3807.38224758,N,11430.58926294,E,2,07,1.3,77.909,M,-14.614,M,15.4,0100*68
$GPZDA,032727.410,26,06,2015,00,00*5
41259317 00000000 GPGGA,032727.50,3807.38224941,N,11430.58926273,E,2,07,1.3,77.898,M,-14.614,M,15.5,0100*6E
$GPZDA,032727.510,26,06,2015,00,00*5
41259417 00000000 GPGGA,032727.60,3807.38224911,N,11430.58926321,E,2,07,1.3,77.904,M,-14.614,M,15.6,0100*69
$GPZDA,032727.611,26,06,2015,00,00*5
41259517 00000000 GPGGA,032727.70,3807.38225044,N,11430.58926254,E,2,07,1.3,77.898,M,-14.614,M,15.7,0100*66
$GPZDA,032727.709,26,06,2015,00,00*5
41259617 00000000 GPGGA,032727.80,3807.38225084,N,11430.58926238,E,2,07,1.3,77.904,M,-14.614,M,15.8,0100*64
$GPZDA,032727.808,26,06,2015,00,00*5
41259717 00000000 GPGGA,032727.90,3807.38225047,N,11430.58926365,E,2,07,1.3,77.900,M,-14.614,M,15.9,0100*66
$GPZDA,032727.909,26,06,2015,00,00*5
41259817 00000014 GPGGA,032728.00,3807.38225142,N,11430.58925907,E,2,07,1.3,77.913,M,-14.614,M,8.0,0100*5E
$GPZDA,032728.016,26,06,2015,00,00*59
41259917 00000000 GPGGA,032728.10,3807.38225112,N,11430.58925964,E,2,07,1.3,77.909,M,-14.614,M,8.1,0100*55
$GPZDA,032728.109,26,06,2015,00,00*56
41260017 00000000 GPGGA,032728.20,3807.38225234,N,11430.58925994,E,2,07,1.3,77.913,M,-14.614,M,8.2,0100*56
$GPZDA,032728.210,26,06,2015,00,00*5D
41260117 00000000 GPGGA,032728.30,3807.38225278,N,11430.58926110,E,2,07,1.3,77.908,M,-14.614,M,8.3,0100*53
$GPZDA,032728.310,26,06,2015,00,00*5C
41260217 00000000 GPGGA,032728.40,3807.38225239,N,11430.58925884,E,2,07,1.3,77.912,M,-14.614,M,8.4,0100*5A
$GPZDA,032728.410,26,06,2015,00,00*5B
41260317 00000000 GPGGA,032728.50,3807.38225099,N,11430.58926213,E,2,07,1.3,77.912,M,-14.614,M,8.5,0100*55
$GPZDA,032728.510,26,06,2015,00,00*5A
41260417 00000000 GPGGA,032728.60,3807.38225237,N,11430.58926054,E,2,07,1.3,77.906,M,-14.614,M,8.6,0100*57
$GPZDA,032728.610,26,06,2015,00,00*59
41260517 00000000 GPGGA,032728.70,3807.38225469,N,11430.58926058,E,2,07,1.3,77.906,M,-14.614,M,8.7,0100*56
$GPZDA,032728.709,26,06,2015,00,00*50
41260617 00000000 GPGGA,032728.80,3807.38225358,N,11430.58926073,E,2,07,1.3,77.914,M,-14.614,M,8.8,0100*59
$GPZDA,032728.810,26,06,2015,00,00*57
41260717 00000000 GPGGA,032728.90,3807.38225350,N,11430.58925932,E,2,07,1.3,77.903,M,-14.614,M,8.9,0100*58
$GPZDA,032728.909,26,06,2015,00,00*5E
41260817 00000014 GPGGA,032729.00,3807.38223148,N,11430.58923415,E,2,07,1.3,77.865,M,-14.614,M,9.0,0100*5A
$GPZDA,032729.017,26,06,2015,00,00*59
41260917 00000000 GPGGA,032729.10,3807.38223211,N,11430.58923771,E,2,07,1.3,77.880,M,-14.614,M,9.1,0100*5F
$GPZDA,032729.108,26,06,2015,00,00*56
41261017 00000000 GPGGA,032729.20,3807.38223287,N,11430.58923571,E,2,07,1.3,77.878,M,-14.614,M,9.2,0100*55
$GPZDA,032729.209,26,06,2015,00,00*54
41261117 00000000 GPGGA,032729.30,3807.38223147,N,11430.58923673,E,2,07,1.3,77.875,M,-14.614,M,9.3,0100*56
$GPZDA,032729.308,26,06,2015,00,00*54
41261217 00000000 GPGGA,032729.40,3807.38223326,N,11430.58923533,E,2,07,1.3,77.868,M,-14.614,M,9.4,0100*58
$GPZDA,032729.409,26,06,2015,00,00*52
41261317 00000000 GPGGA,032729.50,3807.38223482,N,11430.58923512,E,2,07,1.3,77.877,M,-14.614,M,9.5,0100*5C
$GPZDA,032729.509,26,06,2015,00,00*53
41261417 00000000 GPGGA,032729.60,3807.38223299,N,11430.58923567,E,2,07,1.3,77.863,M,-14.614,M,9.6,0100*57
$GPZDA,032729.609,26,06,2015,00,00*50
41261517 00000000 GPGGA,032729.70,3807.38223493,N,11430.58923658,E,2,07,1.3,77.879,M,-14.614,M,9.7,0100*5F
$GPZDA,032729.709,26,06,2015,00,00*51
41261617 00000000 GPGGA,032729.80,3807.38223316,N,11430.58923680,E,2,07,1.3,77.873,M,-14.614,M,9.8,0100*5A
$GPZDA,032729.809,26,06,2015,00,00*5E
41261717 00000000 GPGGA,032729.90,3807.38223427,N,11430.58923698,E,2,07,1.3,77.868,M,-14.614,M,9.9,0100*5C
$GPZDA,032729.909,26,06,2015,00,00*5F
41261817 00000014 GPGGA,032730.00,3807.38223435,N,11430.58923454,E,2,07,1.3,77.872,M,-14.614,M,10.0,0100*66
$GPZDA,032730.016,26,06,2015,00,00*5
41261917 00000000 GPGGA,032730.10,3807.38223360,N,11430.58923563,E,2,07,1.3,77.879,M,-14.614,M,10.1,0100*6F
$GPZDA,032730.110,26,06,2015,00,00*5
41262017 00000000 GPGGA,032730.20,3807.38223472,N,11430.58923556,E,2,07,1.3,77.868,M,-14.614,M,10.2,0100*6D
$GPZDA,032730.225,26,06,2015,00,00*5
41262117 00000000 GPGGA,032730.30,3807.38223454,N,11430.58923638,E,2,07,1.3,77.874,M,-14.614,M,10.3,0100*6F
$GPZDA,032730.309,26,06,2015,00,00*5
41262217 00000000 GPGGA,032730.40,3807.38223586,N,11430.58923577,E,2,07,1.3,77.875,M,-14.614,M,10.4,0100*68
$GPZDA,032730.408,26,06,2015,00,00*5
41262317 00000000 GPGGA,032730.50,3807.38223448,N,11430.58923473,E,2,07,1.3,77.871,M,-14.614,M,10.5,0100*6A
$GPZDA,032730.509,26,06,2015,00,00*5
41262417 00000000 GPGGA,032730.60,3807.38223540,N,11430.58923503,E,2,07,1.3,77.865,M,-14.614,M,10.6,0100*60
$GPZDA,032730.610,26,06,2015,00,00*5
41262517 00000000 GPGGA,032730.70,3807.38223583,N,11430.58923652,E,2,07,1.3,77.873,M,-14.614,M,10.7,0100*6F
$GPZDA,032730.709,26,06,2015,00,00*5
41262617 00000000 GPGGA,032730.80,3807.38223542,N,11430.58923542,E,2,07,1.3,77.867,M,-14.614,M,10.8,0100*65
$GPZDA,032730.809,26,06,2015,00,00*5
41262717 00000000 GPGGA,032730.90,3807.38223590,N,11430.58923541,E,2,07,1.3,77.870,M,-14.614,M,10.9,0100*6F
$GPZDA,032730.910,26,06,2015,00,00*5
41262817 00000014 GPGGA,032731.00,3807.38223509,N,11430.58923616,E,2,07,1.3,77.889,M,-14.614,M,11.0,0100*68
$GPZDA,032731.015,26,06,2015,00,00*5
41262917 00000000 GPGGA,032731.10,3807.38223589,N,11430.58923359,E,2,07,1.3,77.876,M,-14.614,M,11.1,0100*6E
$GPZDA,032731.109,26,06,2015,00,00*5
41263017 00000000 GPGGA,032731.20,3807.38223415,N,11430.58923449,E,2,07,1.3,77.870,M,-14.614,M,11.2,0100*6A
$GPZDA,032731.209,26,06,2015,00,00*5
41263117 00000000 GPGGA,032731.30,3807.38223465,N,11430.58923484,E,2,07,1.3,77.882,M,-14.614,M,11.3,0100*61
$GPZDA,032731.309,26,06,2015,00,00*5
41263217 00000000 GPGGA,032731.40,3807.38223365,N,11430.58923563,E,2,07,1.3,77.875,M,-14.614,M,11.4,0100*66
$GPZDA,032731.409,26,06,2015,00,00*5
41263317 00000000 GPGGA,032731.50,3807.38223721,N,11430.58923597,E,2,07,1.3,77.879,M,-14.614,M,11.5,0100*65
$GPZDA,032731.509,26,06,2015,00,00*5
41263417 00000000 GPGGA,032731.60,3807.38223687,N,11430.58923500,E,2,07,1.3,77.870,M,-14.614,M,11.6,0100*6F
$GPZDA,032731.610,26,06,2015,00,00*5
41263517 00000000 GPGGA,032731.70,3807.38223666,N,11430.58923521,E,2,07,1.3,77.878,M,-14.614,M,11.7,0100*6B
$GPZDA,032731.709,26,06,2015,00,00*5
41263617 00000000 GPGGA,032731.80,3807.38223711,N,11430.58923447,E,2,07,1.3,77.878,M,-14.614,M,11.8,0100*6B
$GPZDA,032731.809,26,06,2015,00,00*5
41263717 00000000 GPGGA,032731.90,3807.38223687,N,11430.58923597,E,2,07,1.3,77.873,M,-14.614,M,11.9,0100*62
$GPZDA,032731.908,26,06,2015,00,00*5
41263817 00000014 GPGGA,032732.00,3807.38223381,N,11430.58923676,E,2,07,1.3,77.866,M,-14.614,M,12.0,0100*69
$GPZDA,032732.017,26,06,2015,00,00*5
41263917 00000000 GPGGA,032732.10,3807.38223531,N,11430.58923505,E,2,07,1.3,77.862,M,-14.614,M,12.1,0100*67
$GPZDA,032732.107,26,06,2015,00,00*5
41264017 00000000 GPGGA,032732.20,3807.38223325,N,11430.58923737,E,2,07,1.3,77.871,M,-14.614,M,12.2,0100*65
$GPZDA,032732.209,26,06,2015,00,00*5
41264117 00000000 GPGGA,032732.30,3807.38223456,N,11430.58923661,E,2,07,1.3,77.859,M,-14.614,M,12.3,0100*6E
$GPZDA,032732.310,26,06,2015,00,00*5
41264217 00000000 GPGGA,032732.40,3807.38223523,N,11430.58923711,E,2,07,1.3,77.871,M,-14.614,M,12.4,0100*61
$GPZDA,032732.409,26,06,2015,00,00*5
41264317 00000000 GPGGA,032732.50,3807.38223554,N,11430.58923808,E,2,07,1.3,77.876,M,-14.614,M,12.5,0100*61
$GPZDA,032732.509,26,06,2015,00,00*5
41264417 00000000 GPGGA,032732.60,3807.38223524,N,11430.58923652,E,2,07,1.3,77.863,M,-14.614,M,12.6,0100*63
$GPZDA,032732.610,26,06,2015,00,00*5
41264517 00000000 GPGGA,032732.70,3807.38223532,N,11430.58923656,E,2,07,1.3,77.861,M,-14.614,M,12.7,0100*62
$GPZDA,032732.709,26,06,2015,00,00*5
41264617 00000000 GPGGA,032732.80,3807.38223522,N,11430.58923831,E,2,07,1.3,77.873,M,-14.614,M,12.8,0100*6F
$GPZDA,032732.809,26,06,2015,00,00*5
41264717 00000000 GPGGA,032732.90,3807.38223663,N,11430.58923569,E,2,07,1.3,77.867,M,-14.614,M,12.9,0100*6C
$GPZDA,032732.909,26,06,2015,00,00*5
41264817 00000014 GPGGA,032733.00,3807.38223274,N,11430.58923628,E,2,07,1.3,77.858,M,-14.614,M,13.0,0100*64
$GPZDA,032733.016,26,06,2015,00,00*5
41264917 00000000 GPGGA,032733.10,3807.38223338,N,11430.58923613,E,2,07,1.3,77.860,M,-14.614,M,13.1,0100*6E
$GPZDA,032733.109,26,06,2015,00,00*5
41265017 00000000 GPGGA,032733.20,3807.38223494,N,11430.58923512,E,2,07,1.3,77.853,M,-14.614,M,13.2,0100*6D
$GPZDA,032733.208,26,06,2015,00,00*5
41265117 00000000 GPGGA,032733.30,3807.38223424,N,11430.58923588,E,2,07,1.3,77.856,M,-14.614,M,13.3,0100*60
$GPZDA,032733.309,26,06,2015,00,00*5
41265217 00000000 GPGGA,032733.40,3807.38223469,N,11430.58923566,E,2,07,1.3,77.861,M,-14.614,M,13.4,0100*6D
$GPZDA,032733.409,26,06,2015,00,00*5
41265317 00000000 GPGGA,032733.50,3807.38223441,N,11430.58923591,E,2,07,1.3,77.848,M,-14.614,M,13.5,0100*64
$GPZDA,032733.509,26,06,2015,00,00*5
41265417 00000000 GPGGA,032733.60,3807.38223519,N,11430.58923657,E,2,07,1.3,77.864,M,-14.614,M,13.6,0100*6F
$GPZDA,032733.613,26,06,2015,00,00*5
41265517 00000000 GPGGA,032733.70,3807.38223634,N,11430.58923478,E,2,07,1.3,77.860,M,-14.614,M,13.7,0100*68
$GPZDA,032733.709,26,06,2015,00,00*5
41265617 00000000 GPGGA,032733.80,3807.38223568,N,11430.58923632,E,2,07,1.3,77.855,M,-14.614,M,13.8,0100*68
$GPZDA,032733.809,26,06,2015,00,00*5
41265717 00000000 GPGGA,032733.90,3807.38223557,N,11430.58923658,E,2,07,1.3,77.857,M,-14.614,M,13.9,0100*6A
$GPZDA,032733.909,26,06,2015,00,00*5
41265817 00000014 GPGGA,032734.00,3807.38223436,N,11430.58923383,E,2,07,1.3,77.865,M,-14.614,M,14.0,0100*6E
$GPZDA,032734.015,26,06,2015,00,00*5
41265917 00000000 GPGGA,032734.10,3807.38223498,N,11430.58923403,E,2,07,1.3,77.866,M,-14.614,M,14.1,0100*66
$GPZDA,032734.109,26,06,2015,00,00*5
41266017 00000000 GPGGA,032734.20,3807.38223481,N,11430.58923416,E,2,07,1.3,77.863,M,-14.614,M,14.2,0100*6F
$GPZDA,032734.209,26,06,2015,00,00*5
41266117 00000000 GPGGA,032734.30,3807.38223578,N,11430.58923394,E,2,07,1.3,77.862,M,-14.614,M,14.3,0100*64
$GPZDA,032734.309,26,06,2015,00,00*5
41266217 00000000 GPGGA,032734.40,3807.38223674,N,11430.58923218,E,2,07,1.3,77.856,M,-14.614,M,14.4,0100*69
$GPZDA,032734.409,26,06,2015,00,00*5
41266317 00000000 GPGGA,032734.50,3807.38223683,N,11430.58923278,E,2,07,1.3,77.858,M,-14.614,M,14.5,0100*69
$GPZDA,032734.508,26,06,2015,00,00*5
41266417 00000000 GPGGA,032734.60,3807.38223642,N,11430.58923410,E,2,07,1.3,77.865,M,-14.614,M,14.6,0100*62
$GPZDA,032734.609,26,06,2015,00,00*5
41266517 00000000 GPGGA,032734.70,3807.38223539,N,11430.58923307,E,2,07,1.3,77.869,M,-14.614,M,14.7,0100*60
$GPZDA,032734.708,26,06,2015,00,00*5
41266617 00000000 GPGGA,032734.80,3807.38223803,N,11430.58923439,E,2,07,1.3,77.862,M,-14.614,M,14.8,0100*65
$GPZDA,032734.809,26,06,2015,00,00*5
41266717 00000000 GPGGA,032734.90,3807.38223855,N,11430.58923287,E,2,07,1.3,77.858,M,-14.614,M,14.9,0100*6C
$GPZDA,032734.909,26,06,2015,00,00*5
41266817 00000014 GPGGA,032735.00,3807.38223820,N,11430.58923223,E,2,07,1.3,77.858,M,-14.614,M,15.0,0100*60
$GPZDA,032735.016,26,06,2015,00,00*5
41266917 00000000 GPGGA,032735.10,3807.38223754,N,11430.58923176,E,2,07,1.3,77.869,M,-14.614,M,15.1,0100*6D
$GPZDA,032735.109,26,06,2015,00,00*5
41267017 00000000 GPGGA,032735.20,3807.38224034,N,11430.58923083,E,2,07,1.3,77.861,M,-14.614,M,15.2,0100*68
$GPZDA,032735.209,26,06,2015,00,00*5
41267117 00000000 GPGGA,032735.30,3807.38224045,N,11430.58923077,E,2,07,1.3,77.869,M,-14.614,M,15.3,0100*6D
$GPZDA,032735.309,26,06,2015,00,00*5
41267217 00000000 GPGGA,032735.40,3807.38223936,N,11430.58923117,E,2,07,1.3,77.862,M,-14.614,M,15.4,0100*6B
$GPZDA,032735.409,26,06,2015,00,00*5
41267317 00000000 GPGGA,032735.50,3807.38224054,N,11430.58923103,E,2,07,1.3,77.858,M,-14.614,M,15.5,0100*6D
$GPZDA,032735.509,26,06,2015,00,00*5
41267417 00000000 GPGGA,032735.60,3807.38223941,N,11430.58923121,E,2,07,1.3,77.857,M,-14.614,M,15.6,0100*68
$GPZDA,032735.609,26,06,2015,00,00*5
41267517 00000000 GPGGA,032735.70,3807.38224152,N,11430.58923165,E,2,07,1.3,77.867,M,-14.614,M,15.7,0100*66
$GPZDA,032735.709,26,06,2015,00,00*5
41267617 00000000 GPGGA,032735.80,3807.38224122,N,11430.58923311,E,2,07,1.3,77.855,M,-14.614,M,15.8,0100*61
$GPZDA,032735.808,26,06,2015,00,00*5
41267717 00000000 GPGGA,032735.90,3807.38224185,N,11430.58923194,E,2,07,1.3,77.865,M,-14.614,M,15.9,0100*60
$GPZDA,032735.909,26,06,2015,00,00*5
41267817 00000014 GPGGA,032736.00,3807.38224046,N,11430.58922952,E,2,07,1.3,77.862,M,-14.614,M,7.6,0100*5C
$GPZDA,032736.016,26,06,2015,00,00*56
41267917 00000000 GPGGA,032736.10,3807.38223999,N,11430.58923183,E,2,07,1.3,77.864,M,-14.614,M,7.7,0100*53
$GPZDA,032736.109,26,06,2015,00,00*59
41268017 00000000 GPGGA,032736.20,3807.38224109,N,11430.58922936,E,2,07,1.3,77.861,M,-14.614,M,7.8,0100*5B
$GPZDA,032736.210,26,06,2015,00,00*52
41268117 00000000 GPGGA,032736.30,3807.38224145,N,11430.58923037,E,2,07,1.3,77.856,M,-14.614,M,7.9,0100*5E
$GPZDA,032736.309,26,06,2015,00,00*5B
41268217 00000000 GPGGA,032736.40,3807.38224323,N,11430.58922906,E,2,07,1.3,77.855,M,-14.614,M,8.0,0100*54
$GPZDA,032736.410,26,06,2015,00,00*54
41268317 00000000 GPGGA,032736.50,3807.38224118,N,11430.58923070,E,2,07,1.3,77.854,M,-14.614,M,8.1,0100*56
$GPZDA,032736.509,26,06,2015,00,00*5D
41268417 00000000 GPGGA,032736.60,3807.38224380,N,11430.58923100,E,2,07,1.3,77.862,M,-14.614,M,8.2,0100*56
$GPZDA,032736.610,26,06,2015,00,00*56
41268517 00000000 GPGGA,032736.70,3807.38224460,N,11430.58923009,E,2,07,1.3,77.856,M,-14.614,M,8.3,0100*50
$GPZDA,032736.710,26,06,2015,00,00*57
41268617 00000000 GPGGA,032736.80,3807.38224218,N,11430.58923127,E,2,07,1.3,77.856,M,-14.614,M,8.4,0100*5C
$GPZDA,032736.810,26,06,2015,00,00*58
41268717 00000000 GPGGA,032736.90,3807.38224342,N,11430.58923002,E,2,07,1.3,77.856,M,-14.614,M,8.5,0100*54
$GPZDA,032736.910,26,06,2015,00,00*59
41268817 00000014 GPGGA,032737.00,3807.38226241,N,11430.58924965,E,2,07,1.3,77.871,M,-14.614,M,8.6,0100*55
$GPZDA,032737.019,26,06,2015,00,00*58
41268917 00000000 GPGGA,032737.10,3807.38226409,N,11430.58924942,E,2,07,1.3,77.878,M,-14.614,M,8.7,0100*53
$GPZDA,032737.109,26,06,2015,00,00*58
41269017 00000000 GPGGA,032737.20,3807.38226366,N,11430.58924823,E,2,07,1.3,77.862,M,-14.614,M,8.8,0100*5C
$GPZDA,032737.209,26,06,2015,00,00*5B
41269117 00000000 GPGGA,032737.30,3807.38226396,N,11430.58924705,E,2,07,1.3,77.870,M,-14.614,M,8.9,0100*5B
$GPZDA,032737.308,26,06,2015,00,00*5B
41269217 00000000 GPGGA,032737.40,3807.38226401,N,11430.58925000,E,2,07,1.3,77.872,M,-14.614,M,9.0,0100*5C
$GPZDA,032737.410,26,06,2015,00,00*55
41269317 00000000 GPGGA,032737.50,3807.38226487,N,11430.58924747,E,2,07,1.3,77.864,M,-14.614,M,9.1,0100*50
$GPZDA,032737.510,26,06,2015,00,00*54
41269417 00000000 GPGGA,032737.60,3807.38226292,N,11430.58924880,E,2,07,1.3,77.866,M,-14.614,M,9.2,0100*54
$GPZDA,032737.609,26,06,2015,00,00*5F
41269517 00000000 GPGGA,032737.70,3807.38226652,N,11430.58924841,E,2,07,1.3,77.866,M,-14.614,M,9.3,0100*51
$GPZDA,032737.709,26,06,2015,00,00*5E
41269617 00000000 GPGGA,032737.80,3807.38226360,N,11430.58924896,E,2,07,1.3,77.872,M,-14.614,M,9.4,0100*52
$GPZDA,032737.810,26,06,2015,00,00*59
41269717 00000000 GPGGA,032737.90,3807.38226598,N,11430.58924870,E,2,07,1.3,77.865,M,-14.614,M,9.5,0100*5D
$GPZDA,032737.909,26,06,2015,00,00*50
41269817 00000014 GPGGA,032738.00,3807.38226316,N,11430.58925043,E,2,07,1.3,77.885,M,-14.614,M,9.6,0100*5F
$GPZDA,032738.016,26,06,2015,00,00*58
41269917 00000000 GPGGA,032738.10,3807.38226411,N,11430.58924870,E,2,07,1.3,77.865,M,-14.614,M,9.7,0100*58
$GPZDA,032738.110,26,06,2015,00,00*5F
41270017 00000000 GPGGA,032738.20,3807.38226412,N,11430.58924794,E,2,07,1.3,77.875,M,-14.614,M,9.8,0100*53
$GPZDA,032738.209,26,06,2015,00,00*54
41270117 00000000 GPGGA,032738.30,3807.38226422,N,11430.58924917,E,2,07,1.3,77.877,M,-14.614,M,9.9,0100*57
$GPZDA,032738.309,26,06,2015,00,00*55
41270217 00000000 GPGGA,032738.40,3807.38226556,N,11430.58924865,E,2,07,1.3,77.880,M,-14.614,M,10.0,0100*6F
$GPZDA,032738.411,26,06,2015,00,00*5
41270317 00000000 GPGGA,032738.50,3807.38226379,N,11430.58925006,E,2,07,1.3,77.866,M,-14.614,M,10.1,0100*60
$GPZDA,032738.510,26,06,2015,00,00*5
41270417 00000000 GPGGA,032738.60,3807.38226410,N,11430.58924886,E,2,07,1.3,77.874,M,-14.614,M,10.2,0100*6A
$GPZDA,032738.608,26,06,2015,00,00*5
41270517 00000000 GPGGA,032738.70,3807.38226683,N,11430.58924842,E,2,07,1.3,77.873,M,-14.614,M,10.3,0100*6D
$GPZDA,032738.709,26,06,2015,00,00*5
41270617 00000000 GPGGA,032738.80,3807.38226326,N,11430.58925047,E,2,07,1.3,77.873,M,-14.614,M,10.4,0100*63
$GPZDA,032738.808,26,06,2015,00,00*5
41270717 00000000 GPGGA,032738.90,3807.38226537,N,11430.58924875,E,2,07,1.3,77.867,M,-14.614,M,10.5,0100*68
$GPZDA,032738.909,26,06,2015,00,00*5
41270817 00000014 GPGGA,032739.00,3807.38226424,N,11430.58924740,E,2,07,1.3,77.871,M,-14.614,M,10.6,0100*6E
$GPZDA,032739.016,26,06,2015,00,00*5
41270917 00000000 GPGGA,032739.10,3807.38226230,N,11430.58924770,E,2,07,1.3,77.866,M,-14.614,M,10.7,0100*68
$GPZDA,032739.110,26,06,2015,00,00*5
41271017 00000000 GPGGA,032739.20,3807.38226448,N,11430.58924744,E,2,07,1.3,77.866,M,-14.614,M,10.8,0100*6A
$GPZDA,032739.210,26,06,2015,00,00*5
41271117 00000000 GPGGA,032739.30,3807.38226452,N,11430.58924689,E,2,07,1.3,77.871,M,-14.614,M,10.9,0100*67
$GPZDA,032739.309,26,06,2015,00,00*5
41271217 00000000 GPGGA,032739.40,3807.38226444,N,11430.58924810,E,2,07,1.3,77.866,M,-14.614,M,11.0,0100*67
$GPZDA,032739.410,26,06,2015,00,00*5
41271317 00000000 GPGGA,032739.50,3807.38226552,N,11430.58924854,E,2,07,1.3,77.868,M,-14.614,M,11.1,0100*6F
$GPZDA,032739.509,26,06,2015,00,00*5
41271417 00000000 GPGGA,032739.60,3807.38226562,N,11430.58924809,E,2,07,1.3,77.867,M,-14.614,M,11.2,0100*6B
$GPZDA,032739.610,26,06,2015,00,00*5
41271517 00000000 GPGGA,032739.70,3807.38226609,N,11430.58924779,E,2,07,1.3,77.867,M,-14.614,M,11.3,0100*6D
$GPZDA,032739.709,26,06,2015,00,00*5
41271617 00000000 GPGGA,032739.80,3807.38226591,N,11430.58924856,E,2,07,1.3,77.863,M,-14.614,M,11.4,0100*61
$GPZDA,032739.810,26,06,2015,00,00*5
41271717 00000000 GPGGA,032739.90,3807.38226536,N,11430.58924784,E,2,07,1.3,77.866,M,-14.614,M,11.5,0100*69
$GPZDA,032739.908,26,06,2015,00,00*5
41271817 00000014 GPGGA,032740.00,3807.38226777,N,11430.58924601,E,2,07,1.3,77.864,M,-14.614,M,11.6,0100*64
$GPZDA,032740.017,26,06,2015,00,00*5
41271917 00000000 GPGGA,032740.10,3807.38226686,N,11430.58924714,E,2,07,1.3,77.866,M,-14.614,M,11.7,0100*6C
$GPZDA,032740.109,26,06,2015,00,00*5
41272017 00000000 GPGGA,032740.20,3807.38226574,N,11430.58924594,E,2,07,1.3,77.862,M,-14.614,M,11.8,0100*60
$GPZDA,032740.210,26,06,2015,00,00*5
41272117 00000000 GPGGA,032740.30,3807.38226719,N,11430.58924771,E,2,07,1.3,77.871,M,-14.614,M,11.9,0100*62
$GPZDA,032740.322,26,06,2015,00,00*5
41272217 00000000 GPGGA,032740.40,3807.38226760,N,11430.58924723,E,2,07,1.3,77.864,M,-14.614,M,12.0,0100*62
$GPZDA,032740.414,26,06,2015,00,00*5
41272317 00000000 GPGGA,032740.50,3807.38226601,N,11430.58924583,E,2,07,1.3,77.861,M,-14.614,M,12.1,0100*69
$GPZDA,032740.510,26,06,2015,00,00*5
41272417 00000000 GPGGA,032740.60,3807.38226840,N,11430.58924651,E,2,07,1.3,77.862,M,-14.614,M,12.2,0100*6D
$GPZDA,032740.609,26,06,2015,00,00*5
41272517 00000000 GPGGA,032740.70,3807.38226847,N,11430.58924684,E,2,07,1.3,77.863,M,-14.614,M,12.3,0100*63
$GPZDA,032740.709,26,06,2015,00,00*5
41272617 00000000 GPGGA,032740.80,3807.38226844,N,11430.58924790,E,2,07,1.3,77.863,M,-14.614,M,12.4,0100*6C
$GPZDA,032740.810,26,06,2015,00,00*5
41272717 00000000 GPGGA,032740.90,3807.38226937,N,11430.58924596,E,2,07,1.3,77.859,M,-14.614,M,12.5,0100*64
$GPZDA,032740.910,26,06,2015,00,00*5
41272817 00000014 GPGGA,032741.00,3807.38226982,N,11430.58924375,E,2,07,1.3,77.868,M,-14.614,M,12.6,0100*68
$GPZDA,032741.016,26,06,2015,00,00*5
41272917 00000000 GPGGA,032741.10,3807.38226972,N,11430.58924348,E,2,07,1.3,77.872,M,-14.614,M,12.7,0100*62
$GPZDA,032741.109,26,06,2015,00,00*5
41273017 00000000 GPGGA,032741.20,3807.38227105,N,11430.58924508,E,2,07,1.3,77.873,M,-14.614,M,12.8,0100*64
$GPZDA,032741.209,26,06,2015,00,00*5
41273117 00000000 GPGGA,032741.30,3807.38227197,N,11430.58924265,E,2,07,1.3,77.859,M,-14.614,M,12.9,0100*6B
$GPZDA,032741.309,26,06,2015,00,00*5
41273217 00000000 GPGGA,032741.40,3807.38227312,N,11430.58924472,E,2,07,1.3,77.873,M,-14.614,M,13.0,0100*63
$GPZDA,032741.408,26,06,2015,00,00*5
41273317 00000000 GPGGA,032741.50,3807.38227158,N,11430.58924335,E,2,07,1.3,77.867,M,-14.614,M,13.1,0100*6E
$GPZDA,032741.510,26,06,2015,00,00*5
41273417 00000000 GPGGA,032741.60,3807.38227208,N,11430.58924441,E,2,07,1.3,77.866,M,-14.614,M,13.2,0100*6D
$GPZDA,032741.608,26,06,2015,00,00*5
41273517 00000000 GPGGA,032741.70,3807.38227229,N,11430.58924467,E,2,07,1.3,77.862,M,-14.614,M,13.3,0100*6E
$GPZDA,032741.709,26,06,2015,00,00*5
41273617 00000000 GPGGA,032741.80,3807.38227282,N,11430.58924313,E,2,07,1.3,77.866,M,-14.614,M,13.4,0100*67
$GPZDA,032741.810,26,06,2015,00,00*5
41273717 00000000 GPGGA,032741.90,3807.38227240,N,11430.58924412,E,2,07,1.3,77.864,M,-14.614,M,13.5,0100*6D
$GPZDA,032741.910,26,06,2015,00,00*5
41273817 00000014 GPGGA,032742.00,3807.38227138,N,11430.58924415,E,2,07,1.3,77.867,M,-14.614,M,13.6,0100*6C
$GPZDA,032742.015,26,06,2015,00,00*5
41273917 00000000 GPGGA,032742.10,3807.38227114,N,11430.58924175,E,2,07,1.3,77.860,M,-14.614,M,13.7,0100*66
$GPZDA,032742.109,26,06,2015,00,00*5
41274017 00000000 GPGGA,032742.20,3807.38227152,N,11430.58924319,E,2,07,1.3,77.862,M,-14.614,M,13.8,0100*62
$GPZDA,032742.210,26,06,2015,00,00*5
41274117 00000000 GPGGA,032742.30,3807.38227274,N,11430.58924243,E,2,07,1.3,77.863,M,-14.614,M,13.9,0100*6A
$GPZDA,032742.309,26,06,2015,00,00*5
41274217 00000000 GPGGA,032742.40,3807.38227411,N,11430.58924264,E,2,07,1.3,77.865,M,-14.614,M,14.0,0100*65
$GPZDA,032742.409,26,06,2015,00,00*5
41274317 00000000 GPGGA,032742.50,3807.38227163,N,11430.58924254,E,2,07,1.3,77.861,M,-14.614,M,14.1,0100*62
$GPZDA,032742.509,26,06,2015,00,00*5
41274417 00000000 GPGGA,032742.60,3807.38227260,N,11430.58924337,E,2,07,1.3,77.856,M,-14.614,M,14.2,0100*62
$GPZDA,032742.610,26,06,2015,00,00*5
41274517 00000000 GPGGA,032742.70,3807.38227497,N,11430.58924158,E,2,07,1.3,77.849,M,-14.614,M,14.3,0100*69
$GPZDA,032742.708,26,06,2015,00,00*5
41274617 00000000 GPGGA,032742.80,3807.38227423,N,11430.58924273,E,2,07,1.3,77.868,M,-14.614,M,14.4,0100*67
$GPZDA,032742.810,26,06,2015,00,00*5
41274717 00000000 GPGGA,032742.90,3807.38227210,N,11430.58924360,E,2,07,1.3,77.859,M,-14.614,M,14.5,0100*60
$GPZDA,032742.909,26,06,2015,00,00*5
41274817 00000014 GPGGA,032743.00,3807.38227297,N,11430.58924048,E,2,07,1.3,77.859,M,-14.614,M,14.6,0100*6D
$GPZDA,032743.017,26,06,2015,00,00*5
41274917 00000000 GPGGA,032743.10,3807.38227341,N,11430.58924077,E,2,07,1.3,77.855,M,-14.614,M,14.7,0100*67
$GPZDA,032743.110,26,06,2015,00,00*5
41275017 00000000 GPGGA,032743.20,3807.38227285,N,11430.58924110,E,2,07,1.3,77.853,M,-14.614,M,14.8,0100*64
$GPZDA,032743.210,26,06,2015,00,00*5
41275117 00000000 GPGGA,032743.30,3807.38227390,N,11430.58924035,E,2,07,1.3,77.856,M,-14.614,M,14.9,0100*62
$GPZDA,032743.310,26,06,2015,00,00*5
41275217 00000000 GPGGA,032743.40,3807.38227327,N,11430.58924080,E,2,07,1.3,77.853,M,-14.614,M,15.0,0100*6A
$GPZDA,032743.410,26,06,2015,00,00*5
41275317 00000000 GPGGA,032743.50,3807.38227462,N,11430.58924154,E,2,07,1.3,77.859,M,-14.614,M,15.1,0100*6E
$GPZDA,032743.509,26,06,2015,00,00*5
41275417 00000000 GPGGA,032743.60,3807.38227468,N,11430.58924176,E,2,07,1.3,77.855,M,-14.614,M,15.2,0100*68
$GPZDA,032743.616,26,06,2015,00,00*5
41275517 00000000 GPGGA,032743.70,3807.38227420,N,11430.58924163,E,2,07,1.3,77.861,M,-14.614,M,15.3,0100*67
$GPZDA,032743.709,26,06,2015,00,00*5
41275617 00000000 GPGGA,032743.80,3807.38227416,N,11430.58924166,E,2,07,1.3,77.858,M,-14.614,M,15.4,0100*65
$GPZDA,032743.809,26,06,2015,00,00*5
41275717 00000000 GPGGA,032743.90,3807.38227641,N,11430.58924021,E,2,07,1.3,77.851,M,-14.614,M,15.5,0100*6E
$GPZDA,032743.910,26,06,2015,00,00*5
41275817 00000014 GPGGA,032744.00,3807.38227310,N,11430.58924328,E,2,07,1.3,77.861,M,-14.614,M,6.2,0100*5D
$GPZDA,032744.016,26,06,2015,00,00*53
41275917 00000000 GPGGA,032744.10,3807.38227393,N,11430.58924142,E,2,07,1.3,77.858,M,-14.614,M,6.3,0100*52
$GPZDA,032744.109,26,06,2015,00,00*5C
41276017 00000000 GPGGA,032744.20,3807.38227196,N,11430.58924215,E,2,07,1.3,77.858,M,-14.614,M,6.4,0100*50
$GPZDA,032744.208,26,06,2015,00,00*5E
41276117 00000000 GPGGA,032744.30,3807.38227456,N,11430.58924377,E,2,07,1.3,77.856,M,-14.614,M,6.5,0100*52
$GPZDA,032744.310,26,06,2015,00,00*56
41276217 00000000 GPGGA,032744.40,3807.38227503,N,11430.58924104,E,2,07,1.3,77.863,M,-14.614,M,6.6,0100*57
$GPZDA,032744.410,26,06,2015,00,00*51
41276317 00000000 GPGGA,032744.50,3807.38227589,N,11430.58924180,E,2,07,1.3,77.851,M,-14.614,M,6.7,0100*58
$GPZDA,032744.509,26,06,2015,00,00*58
41276417 00000000 GPGGA,032744.60,3807.38227485,N,11430.58924300,E,2,07,1.3,77.857,M,-14.614,M,6.8,0100*55
$GPZDA,032744.610,26,06,2015,00,00*53
41276517 00000000 GPGGA,032744.70,3807.38227268,N,11430.58924273,E,2,07,1.3,77.853,M,-14.614,M,6.9,0100*51
$GPZDA,032744.709,26,06,2015,00,00*5A
41276617 00000000 GPGGA,032744.80,3807.38227463,N,11430.58924182,E,2,07,1.3,77.859,M,-14.614,M,7.0,0100*5C
$GPZDA,032744.810,26,06,2015,00,00*5D
41276717 00000000 GPGGA,032744.90,3807.38227501,N,11430.58924334,E,2,07,1.3,77.856,M,-14.614,M,7.1,0100*59
$GPZDA,032744.909,26,06,2015,00,00*54
41276817 00000014 GPGGA,032745.00,3807.38221522,N,11430.58927401,E,2,07,1.3,77.906,M,-14.614,M,7.2,0100*53
$GPZDA,032745.018,26,06,2015,00,00*5C
41276917 00000000 GPGGA,032745.10,3807.38221313,N,11430.58927392,E,2,07,1.3,77.915,M,-14.614,M,7.3,0100*58
$GPZDA,032745.109,26,06,2015,00,00*5D
41277017 00000000 GPGGA,032745.20,3807.38221330,N,11430.58927333,E,2,07,1.3,77.908,M,-14.614,M,7.4,0100*5A
$GPZDA,032745.209,26,06,2015,00,00*5E
41277117 00000000 GPGGA,032745.30,3807.38221453,N,11430.58927378,E,2,07,1.3,77.904,M,-14.614,M,7.5,0100*5B
$GPZDA,032745.308,26,06,2015,00,00*5E
41277217 00000000 GPGGA,032745.40,3807.38221358,N,11430.58927397,E,2,07,1.3,77.909,M,-14.614,M,7.6,0100*5F
$GPZDA,032745.409,26,06,2015,00,00*58
41277317 00000000 GPGGA,032745.50,3807.38221394,N,11430.58927362,E,2,07,1.3,77.909,M,-14.614,M,7.7,0100*55
$GPZDA,032745.508,26,06,2015,00,00*58
41277417 00000000 GPGGA,032745.60,3807.38221378,N,11430.58927473,E,2,07,1.3,77.911,M,-14.614,M,7.8,0100*55
$GPZDA,032745.610,26,06,2015,00,00*52
41277517 00000000 GPGGA,032745.70,3807.38221472,N,11430.58927359,E,2,07,1.3,77.904,M,-14.614,M,7.9,0100*53
$GPZDA,032745.710,26,06,2015,00,00*53
41277617 00000000 GPGGA,032745.80,3807.38221449,N,11430.58927325,E,2,07,1.3,77.901,M,-14.614,M,8.0,0100*5C
$GPZDA,032745.810,26,06,2015,00,00*5C
41277717 00000000 GPGGA,032745.90,3807.38221559,N,11430.58927299,E,2,07,1.3,77.906,M,-14.614,M,8.1,0100*5D
$GPZDA,032745.910,26,06,2015,00,00*5D
41277817 00000014 GPGGA,032746.00,3807.38221470,N,11430.58927411,E,2,07,1.3,77.910,M,-14.614,M,8.2,0100*5F
$GPZDA,032746.017,26,06,2015,00,00*50
41277917 00000000 GPGGA,032746.10,3807.38221455,N,11430.58927270,E,2,07,1.3,77.910,M,-14.614,M,8.3,0100*59
$GPZDA,032746.109,26,06,2015,00,00*5E
41278017 00000000 GPGGA,032746.20,3807.38221525,N,11430.58927260,E,2,07,1.3,77.913,M,-14.614,M,8.4,0100*59
$GPZDA,032746.210,26,06,2015,00,00*55
41278117 00000000 GPGGA,032746.30,3807.38221500,N,11430.58927439,E,2,07,1.3,77.914,M,-14.614,M,8.5,0100*53
$GPZDA,032746.309,26,06,2015,00,00*5C
41278217 00000000 GPGGA,032746.40,3807.38221507,N,11430.58927409,E,2,07,1.3,77.904,M,-14.614,M,8.6,0100*52
$GPZDA,032746.410,26,06,2015,00,00*53
41278317 00000000 GPGGA,032746.50,3807.38221730,N,11430.58927156,E,2,07,1.3,77.906,M,-14.614,M,8.7,0100*59
$GPZDA,032746.509,26,06,2015,00,00*5A
41278417 00000000 GPGGA,032746.60,3807.38221582,N,11430.58927372,E,2,07,1.3,77.908,M,-14.614,M,8.8,0100*54
$GPZDA,032746.611,26,06,2015,00,00*50
41278517 00000000 GPGGA,032746.70,3807.38221627,N,11430.58927279,E,2,07,1.3,77.910,M,-14.614,M,8.9,0100*5B
$GPZDA,032746.710,26,06,2015,00,00*50
41278617 00000000 GPGGA,032746.80,3807.38221686,N,11430.58927354,E,2,07,1.3,77.909,M,-14.614,M,9.0,0100*51
$GPZDA,032746.808,26,06,2015,00,00*56
41278717 00000000 GPGGA,032746.90,3807.38221642,N,11430.58927359,E,2,07,1.3,77.903,M,-14.614,M,9.1,0100*5E
$GPZDA,032746.909,26,06,2015,00,00*56
41278817 00000014 GPGGA,032747.00,3807.38221587,N,11430.58927311,E,2,07,1.3,77.907,M,-14.614,M,9.2,0100*57
$GPZDA,032747.018,26,06,2015,00,00*5E
41278917 00000000 GPGGA,032747.10,3807.38221495,N,11430.58927291,E,2,07,1.3,77.904,M,-14.614,M,9.3,0100*5F
$GPZDA,032747.109,26,06,2015,00,00*5F
41279017 00000000 GPGGA,032747.20,3807.38221683,N,11430.58927362,E,2,07,1.3,77.910,M,-14.614,M,9.4,0100*56
$GPZDA,032747.209,26,06,2015,00,00*5C
41279117 00000000 GPGGA,032747.30,3807.38221719,N,11430.58927238,E,2,07,1.3,77.903,M,-14.614,M,9.5,0100*58
$GPZDA,032747.310,26,06,2015,00,00*55
41279217 00000000 GPGGA,032747.40,3807.38221534,N,11430.58927373,E,2,07,1.3,77.903,M,-14.614,M,9.6,0100*5F
$GPZDA,032747.410,26,06,2015,00,00*52
41279317 00000000 GPGGA,032747.50,3807.38221717,N,11430.58927293,E,2,07,1.3,77.903,M,-14.614,M,9.7,0100*53
$GPZDA,032747.509,26,06,2015,00,00*5B
41279417 00000000 GPGGA,032747.60,3807.38221660,N,11430.58927262,E,2,07,1.3,77.908,M,-14.614,M,9.8,0100*5B
$GPZDA,032747.610,26,06,2015,00,00*50
41279517 00000000 GPGGA,032747.70,3807.38221678,N,11430.58927308,E,2,07,1.3,77.903,M,-14.614,M,9.9,0100*54
